Location,Ward_id,Ward,Street,Price,Metro,Distance,latitude,longitude
1,13101 ,千代田区,隼町３－１９,"2,800,000 ",半蔵門,180 ,35.68162,139.74202
2,13101 ,千代田区,大手町１－８－１,"25,100,000 ",大手町,,35.68778,139.76434
3,13101 ,千代田区,内神田１－１５－１０,"3,700,000 ",小川町,250 ,35.69196,139.76558
4,13101 ,千代田区,岩本町３－７－１３,"1,170,000 ",岩本町,240 ,35.69597,139.77777
5,13101 ,千代田区,丸の内３－３－１,"26,300,000 ",東京,480 ,35.67756,139.76265
6,13101 ,千代田区,西神田１－３－６,"3,860,000 ",水道橋,340 ,35.69972,139.75647
7,13101 ,千代田区,霞が関３－７－１,"6,750,000 ",溜池山王,270 ,35.67148,139.74477
8,13101 ,千代田区,内神田２－１１－６,"4,330,000 ",神田,320 ,35.6908,139.76736
9,13101 ,千代田区,岩本町１－３－４,"2,010,000 ",神田,500 ,35.69188,139.7757
10,13101 ,千代田区,外神田４－１－１,"11,000,000 ",秋葉原,250 ,35.69982,139.77173
11,13101 ,千代田区,外神田３－１４－９,"6,370,000 ",秋葉原,390 ,35.70113,139.77124
12,13101 ,千代田区,九段南３－２－１５,"1,850,000 ",都営市ヶ谷,520 ,35.6921,139.74287
13,13101 ,千代田区,富士見２－２－６,"2,200,000 ",飯田橋,160 ,35.69922,139.74547
14,13101 ,千代田区,飯田橋２－１０－６,"1,380,000 ",飯田橋,160 ,35.70021,139.74899
15,13102 ,中央区,日本橋本町２－６－３,"2,880,000 ",三越前,270 ,35.6876,139.77689
16,13102 ,中央区,日本橋室町１－５－３,"17,300,000 ",三越前,,35.68596,139.77446
17,13102 ,中央区,京橋２－６－１４,"2,470,000 ",京橋,120 ,35.67683,139.77045
18,13102 ,中央区,八重洲２－１０－５,"2,290,000 ",京橋,220 ,35.67604,139.76711
19,13102 ,中央区,京橋２－４－１５,"14,900,000 ",京橋,,35.67673,139.76927
20,13102 ,中央区,日本橋人形町２－２１－１０,"1,560,000 ",人形町,160 ,35.68608,139.7847
21,13102 ,中央区,八丁堀２－２１－１１,"1,750,000 ",八丁堀,100 ,35.67603,139.77724
22,13102 ,中央区,湊１－２－７,"1,110,000 ",八丁堀,250 ,35.67294,139.77893
23,13102 ,中央区,月島３－２５－３,"1,240,000 ",勝どき,500 ,35.6626,139.77774
24,13102 ,中央区,晴海３－５－１,"1,350,000 ",勝どき,560 ,35.65552,139.77983
25,13102 ,中央区,晴海５－１－９,"1,010,000 ",勝どき,900 ,35.65195,139.77342
26,13102 ,中央区,日本橋堀留町１－２－１５,"1,930,000 ",小伝馬町,400 ,35.68822,139.77887
27,13102 ,中央区,新富２－４－４,"1,870,000 ",新富町,70 ,35.67154,139.7733
28,13102 ,中央区,日本橋本町４－１－１１,"5,400,000 ",新日本橋,,35.68918,139.77393
29,13102 ,中央区,日本橋２－３－１８,"9,500,000 ",日本橋,150 ,35.68136,139.77216
30,13102 ,中央区,佃１－５－７,"873,000 ",月島,420 ,35.66776,139.78302
31,13102 ,中央区,月島３－１０－４,"2,000,000 ",月島,,35.66282,139.78203
32,13102 ,中央区,東日本橋２－２３－４,"925,000 ",東日本橋,250 ,35.69419,139.78641
33,13102 ,中央区,銀座２－１２－１４,"7,090,000 ",東銀座,120 ,35.67168,139.76935
34,13102 ,中央区,日本橋蛎殻町１－２６－６,"1,210,000 ",水天宮前,210 ,35.68209,139.78363
35,13102 ,中央区,日本橋箱崎町３５－３,"861,000 ",水天宮前,250 ,35.68063,139.78822
36,13102 ,中央区,日本橋浜町２－２４－８,"1,400,000 ",浜町,260 ,35.68594,139.78844
37,13102 ,中央区,築地３－９－１０,"2,190,000 ",築地,70 ,35.668,139.77298
38,13102 ,中央区,築地７－１０－１１,"1,440,000 ",築地,400 ,35.66614,139.77516
39,13102 ,中央区,銀座６－８－３,"30,700,000 ",銀座,150 ,35.6703,139.763
40,13102 ,中央区,銀座７－３－１４,"6,700,000 ",銀座,360 ,35.67041,139.76062
41,13102 ,中央区,銀座７－１１－１４,"7,800,000 ",銀座,400 ,35.66833,139.76357
42,13102 ,中央区,銀座２－６－７,"41,900,000 ",銀座一丁目,,35.67355,139.76711
43,13102 ,中央区,日本橋馬喰町１－４－１７,"2,650,000 ",馬喰町,,35.69281,139.78123
44,13103 ,港区,赤坂８－１１－３７,"4,100,000 ",乃木坂,130 ,35.66887,139.72795
45,13103 ,港区,六本木６－１－５,"4,070,000 ",六本木,90 ,35.66245,139.73135
46,13103 ,港区,西麻布３－１－１８,"2,810,000 ",六本木,400 ,35.66031,139.72656
47,13103 ,港区,元麻布３－１－３８,"2,250,000 ",六本木,520 ,35.6578,139.72849
48,13103 ,港区,西麻布３－１５－８,"1,680,000 ",六本木,850 ,35.65766,139.72527
49,13103 ,港区,六本木２－３－９,"4,890,000 ",六本木一丁目,200 ,35.66657,139.7379
50,13103 ,港区,麻布台３－４－１０,"2,850,000 ",六本木一丁目,450 ,35.65978,139.73868
51,13103 ,港区,新橋１－１８－１６,"12,300,000 ",内幸町,,35.66863,139.75584
52,13103 ,港区,港南２－１３－３７,"3,560,000 ",品川,380 ,35.62769,139.74519
53,13103 ,港区,南青山２－１４－１５,"2,120,000 ",外苑前,180 ,35.67023,139.7207
54,13103 ,港区,芝大門２－１１－１,"2,080,000 ",大門,220 ,35.65386,139.75356
55,13103 ,港区,南麻布５－１５－２５,"3,170,000 ",広尾,80 ,35.6511,139.72276
56,13103 ,港区,西新橋３－２３－５,"5,750,000 ",御成門,100 ,35.66172,139.75134
57,13103 ,港区,新橋５－１４－４,"4,130,000 ",新橋,480 ,35.66215,139.75638
58,13103 ,港区,芝浦３－１２－３,"2,350,000 ",田町,400 ,35.64252,139.74911
59,13103 ,港区,芝５－１３－１３,"3,250,000 ",田町,530 ,35.64929,139.74503
60,13103 ,港区,芝浦４－５－１６,"1,390,000 ",田町,800 ,35.64118,139.74561
61,13103 ,港区,白金台５－４－１４,"1,240,000 ",白金台,700 ,35.64179,139.72151
62,13103 ,港区,高輪１－９－５,"1,290,000 ",白金高輪,250 ,35.64208,139.73573
63,13103 ,港区,高輪１－２１－３,"1,420,000 ",白金高輪,500 ,35.63837,139.73401
64,13103 ,港区,海岸３－２２－３４,"995,000 ",芝浦ふ頭,200 ,35.64174,139.7572
65,13103 ,港区,虎ノ門１－１６－８,"3,540,000 ",虎ノ門,240 ,35.66849,139.74886
66,13103 ,港区,虎ノ門１－１－２１,"12,500,000 ",虎ノ門,,35.67029,139.75056
67,13103 ,港区,北青山３－５－３０,"25,700,000 ",表参道,50 ,35.66563,139.71277
68,13103 ,港区,南青山４－２６－１８,"1,740,000 ",表参道,560 ,35.66221,139.71814
69,13103 ,港区,南青山７－１３－５,"1,500,000 ",表参道,"1,100 ",35.65731,139.71715
70,13103 ,港区,赤坂２－１３－２３,"4,350,000 ",赤坂,90 ,35.67299,139.73819
71,13103 ,港区,赤坂３－１１－１９,"2,530,000 ",赤坂見附,220 ,35.67484,139.73734
72,13103 ,港区,東麻布１－１０－１２,"2,880,000 ",赤羽橋,260 ,35.65683,139.7446
73,13103 ,港区,東麻布１－１６－９,"1,370,000 ",赤羽橋,300 ,35.65669,139.7428
74,13103 ,港区,高輪３－５－１２,"1,220,000 ",高輪台,240 ,35.63366,139.73146
75,13103 ,港区,東麻布３－４－９,"1,390,000 ",麻布十番,160 ,35.65732,139.7374
76,13103 ,港区,麻布十番２－５－３,"2,690,000 ",麻布十番,300 ,35.65629,139.73352
77,13103 ,港区,六本木５－１３－１,"2,120,000 ",麻布十番,400 ,35.65881,139.73602
78,13104 ,新宿区,中落合２－８－９,"808,000 ",下落合,230 ,35.71704,139.69383
79,13104 ,新宿区,北新宿１－７－２０,"2,140,000 ",大久保,200 ,35.70047,139.69514
80,13104 ,新宿区,百人町２－２０－２１,"640,000 ",大久保,240 ,35.70239,139.69785
81,13104 ,新宿区,北新宿１－１２－１２,"965,000 ",大久保,270 ,35.70171,139.69394
82,13104 ,新宿区,西新宿１－１８－２,"19,000,000 ",新宿,170 ,35.68857,139.69807
83,13104 ,新宿区,新宿３－１８－５,"17,000,000 ",新宿,200 ,35.6923,139.70245
84,13104 ,新宿区,歌舞伎町１－１８－９,"6,960,000 ",新宿,340 ,35.69469,139.70158
85,13104 ,新宿区,西新宿２－６－１,"10,600,000 ",新宿,640 ,35.69202,139.69246
86,13104 ,新宿区,西新宿３－２－５,"5,520,000 ",新宿,640 ,35.68681,139.6936
87,13104 ,新宿区,西新宿７－１８－１９,"1,300,000 ",新宿,650 ,35.69614,139.69653
88,13104 ,新宿区,新宿３－３３－１０,"9,780,000 ",新宿三丁目,120 ,35.69019,139.70349
89,13104 ,新宿区,新宿５－１５－６,"2,980,000 ",新宿三丁目,420 ,35.69386,139.70714
90,13104 ,新宿区,新宿３－５－４,"17,900,000 ",新宿三丁目,,35.69144,139.70546
91,13104 ,新宿区,新宿１－３１－１６,"1,470,000 ",新宿御苑前,200 ,35.69028,139.71158
92,13104 ,新宿区,新宿１－３４－１５,"2,120,000 ",新宿御苑前,370 ,35.69125,139.71074
93,13104 ,新宿区,新宿１－４－１２,"3,480,000 ",新宿御苑前,,35.68831,139.71121
94,13104 ,新宿区,歌舞伎町２－１９－１３,"1,920,000 ",東新宿,200 ,35.69805,139.70451
95,13104 ,新宿区,新宿７－２２－１９,"582,000 ",東新宿,440 ,35.6997,139.71049
96,13104 ,新宿区,市谷甲良町１－５,"945,000 ",牛込柳町,230 ,35.69854,139.72807
97,13104 ,新宿区,若松町３３－９,"1,380,000 ",若松河田,300 ,35.70065,139.72044
98,13104 ,新宿区,戸山１－７－４,"624,000 ",若松河田,480 ,35.7024,139.71812
99,13104 ,新宿区,中落合３－２６－１８,"536,000 ",落合南長崎,350 ,35.72233,139.68626
100,13104 ,新宿区,西新宿７－２１－２２,"4,830,000 ",西新宿,190 ,35.6944,139.69498
101,13104 ,新宿区,北新宿２－１２－５,"554,000 ",西新宿,850 ,35.69942,139.68929
102,13104 ,新宿区,西新宿５－７－１,"1,900,000 ",西新宿五丁目,390 ,35.69212,139.68672
103,13104 ,新宿区,西早稲田２－２０－５,"1,550,000 ",西早稲田,,35.70935,139.70964
104,13104 ,新宿区,中落合１－１７－８,"730,000 ",西武中井,150 ,35.71546,139.6879
105,13104 ,新宿区,上落合３－２０－１５,"495,000 ",都営中井,400 ,35.71254,139.68323
106,13104 ,新宿区,揚場町２－１９,"1,980,000 ",飯田橋,200 ,35.70229,139.74271
107,13104 ,新宿区,東五軒町３－２８,"903,000 ",飯田橋,630 ,35.70587,139.73953
108,13104 ,新宿区,高田馬場４－８－４,"3,180,000 ",高田馬場,80 ,35.71358,139.70341
109,13104 ,新宿区,高田馬場１－２１－２１,"670,000 ",高田馬場,390 ,35.70951,139.70454
110,13104 ,新宿区,高田馬場２－８－４,"1,910,000 ",高田馬場,450 ,35.71219,139.70869
111,13104 ,新宿区,高田馬場３－２０－８,"562,000 ",高田馬場,800 ,35.71339,139.69804
112,13105 ,文京区,本駒込２－９－５,"945,000 ",千石,130 ,35.72732,139.74725
113,13105 ,文京区,千駄木１－１１－８,"890,000 ",千駄木,550 ,35.723,139.75894
114,13105 ,文京区,千駄木３－４０－２,"1,210,000 ",千駄木,,35.72629,139.76396
115,13105 ,文京区,小石川２－９－１３,"915,000 ",後楽園,270 ,35.71062,139.74911
116,13105 ,文京区,湯島１－１１－１０,"1,500,000 ",御茶ノ水,450 ,35.70276,139.76605
117,13105 ,文京区,西片１－１１－５,"1,050,000 ",春日,400 ,35.71382,139.75447
118,13105 ,文京区,小石川１－３－２１,"2,190,000 ",春日,,35.70947,139.75266
119,13105 ,文京区,本郷４－１－３,"2,020,000 ",本郷三丁目,120 ,35.70807,139.76077
120,13105 ,文京区,本郷５－１４－５,"845,000 ",本郷三丁目,600 ,35.71099,139.7579
121,13105 ,文京区,本駒込１－１６－５,"875,000 ",本駒込,460 ,35.72603,139.75079
122,13105 ,文京区,関口１－４４－５,"1,170,000 ",江戸川橋,230 ,35.70953,139.72868
123,13105 ,文京区,本駒込１－１－２８,"1,280,000 ",白山,180 ,35.72342,139.75352
124,13105 ,文京区,白山４－２８－１８,"847,000 ",白山,400 ,35.71984,139.74849
125,13105 ,文京区,小石川５－３－４,"1,530,000 ",茗荷谷,220 ,35.71666,139.73897
126,13105 ,文京区,大塚３－５－２,"1,270,000 ",茗荷谷,270 ,35.71962,139.73442
127,13105 ,文京区,小石川５－３３－６,"860,000 ",茗荷谷,560 ,35.72013,139.74057
128,13105 ,文京区,本駒込５－５６－１１,"670,000 ",駒込,470 ,35.73473,139.75201
129,13105 ,文京区,本駒込５－４－６,"1,240,000 ",駒込,550 ,35.73243,139.75023
130,13106 ,台東区,西浅草２－１３－１０,"1,190,000 ",つくばエクスプレス浅草,160 ,35.71236,139.79192
131,13106 ,台東区,三ノ輪１－２８－１０,"894,000 ",三ノ輪,60 ,35.72935,139.79156
132,13106 ,台東区,三ノ輪１－５－１,"497,000 ",三ノ輪,400 ,35.72707,139.7928
133,13106 ,台東区,下谷３－１４－４,"705,000 ",三ノ輪,480 ,35.72596,139.78745
134,13106 ,台東区,根岸５－１１－４,"532,000 ",三ノ輪,620 ,35.72675,139.78697
135,13106 ,台東区,上野６－１４－７,"8,540,000 ",上野,130 ,35.71129,139.77542
136,13106 ,台東区,上野５－１５－１３,"2,320,000 ",仲御徒町,180 ,35.70536,139.77567
137,13106 ,台東区,東上野１－７－１３,"1,070,000 ",仲御徒町,400 ,35.70768,139.77977
138,13106 ,台東区,下谷１－４－１０,"1,040,000 ",入谷,230 ,35.71846,139.78227
139,13106 ,台東区,松が谷３－１１－３,"586,000 ",入谷,620 ,35.71649,139.78671
140,13106 ,台東区,東浅草２－１７－１６,"391,000 ",南千住,850 ,35.725,139.80099
141,13106 ,台東区,清川２－２－６,"373,000 ",南千住,900 ,35.72641,139.80348
142,13106 ,台東区,元浅草１－６－１２,"1,000,000 ",新御徒町,110 ,35.70792,139.7829
143,13106 ,台東区,駒形１－４－１５,"1,100,000 ",浅草,190 ,35.707,139.79451
144,13106 ,台東区,浅草１－２９－６,"1,650,000 ",浅草,350 ,35.71215,139.79523
145,13106 ,台東区,浅草７－２－７,"629,000 ",浅草,740 ,35.716,139.80215
146,13106 ,台東区,浅草橋１－２７－４,"793,000 ",浅草橋,150 ,35.69812,139.78491
147,13106 ,台東区,柳橋１－６－２,"787,000 ",浅草橋,180 ,35.6962,139.78702
148,13106 ,台東区,浅草橋１－１８－１０,"2,270,000 ",浅草橋,,35.69761,139.78613
149,13106 ,台東区,寿１－１４－８,"562,000 ",田原町,360 ,35.70782,139.7892
150,13106 ,台東区,東上野３－３３－９,"1,570,000 ",稲荷町,,35.71111,139.78247
151,13106 ,台東区,蔵前２－４－５,"1,130,000 ",蔵前,,35.70272,139.79065
152,13106 ,台東区,根岸３－６－３,"736,000 ",鶯谷,290 ,35.72254,139.78023
153,13106 ,台東区,上野桜木１－１－５,"772,000 ",鶯谷,640 ,35.72138,139.77339
154,13107 ,墨田区,業平１－１８－１２,"941,000 ",とうきょうスカイツリー,150 ,35.70903,139.80896
155,13107 ,墨田区,向島３－１４－６,"446,000 ",とうきょうスカイツリー,350 ,35.71283,139.80792
156,13107 ,墨田区,京島３－２０－１０,"424,000 ",京成曳舟,600 ,35.71548,139.82463
157,13107 ,墨田区,文花３－２３－９,"432,000 ",小村井,80 ,35.71097,139.82841
158,13107 ,墨田区,押上３－１８－９,"367,000 ",押上,450 ,35.71214,139.81798
159,13107 ,墨田区,文花１－２－２,"435,000 ",押上,600 ,35.70926,139.81912
160,13107 ,墨田区,東向島２－２３－４,"463,000 ",曳舟,330 ,35.72014,139.81613
161,13107 ,墨田区,東向島２－１１－１６,"474,000 ",曳舟,350 ,35.71592,139.81502
162,13107 ,墨田区,東駒形３－１８－８,"645,000 ",本所吾妻橋,190 ,35.70685,139.80428
163,13107 ,墨田区,立花１－２５－２,"314,000 ",東あずま,350 ,35.70505,139.83163
164,13107 ,墨田区,東向島３－１６－１７,"337,000 ",東向島,600 ,35.72464,139.81476
165,13107 ,墨田区,千歳３－１２－６,"637,000 ",森下,230 ,35.69112,139.79768
166,13107 ,墨田区,菊川３－１４－５,"501,000 ",菊川,250 ,35.68936,139.80861
167,13107 ,墨田区,緑１－２２－５,"548,000 ",都営両国,250 ,35.6954,139.79982
168,13107 ,墨田区,緑２－１５－１４,"674,000 ",都営両国,500 ,35.69508,139.80226
169,13107 ,墨田区,石原２－１７－１４,"602,000 ",都営両国,580 ,35.70062,139.80072
170,13107 ,墨田区,緑１－２８－４,"867,000 ",都営両国,,35.69541,139.79779
171,13107 ,墨田区,江東橋１－１１－８,"1,040,000 ",錦糸町,400 ,35.69553,139.81026
172,13107 ,墨田区,墨田３－３１－１３,"415,000 ",鐘ケ淵,160 ,35.73248,139.82025
173,13108 ,江東区,亀戸２－２８－２,"619,000 ",亀戸,350 ,35.69937,139.82468
174,13108 ,江東区,亀戸４－１７－２６,"496,000 ",亀戸,470 ,35.70108,139.82692
175,13108 ,江東区,亀戸１－８－４,"741,000 ",亀戸,500 ,35.69618,139.82246
176,13108 ,江東区,亀戸７－３－５,"410,000 ",亀戸,750 ,35.69503,139.83363
177,13108 ,江東区,亀戸７－４１－１１,"585,000 ",亀戸,900 ,35.69688,139.83687
178,13108 ,江東区,亀戸２－７－７,"578,000 ",亀戸,950 ,35.70127,139.82034
179,13108 ,江東区,猿江２－９－４,"551,000 ",住吉,90 ,35.68734,139.81531
180,13108 ,江東区,住吉２－２７－２,"500,000 ",住吉,100 ,35.68891,139.81676
181,13108 ,江東区,扇橋３－１５－１０,"566,000 ",住吉,580 ,35.68335,139.8176
182,13108 ,江東区,南砂３－８－２６,"425,000 ",南砂町,350 ,35.67071,139.83009
183,13108 ,江東区,東砂８－８－１３,"346,000 ",南砂町,"1,000 ",35.66817,139.84055
184,13108 ,江東区,大島５－２８－１８,"408,000 ",大島,380 ,35.68721,139.83514
185,13108 ,江東区,北砂４－２４－４,"547,000 ",大島,"1,400 ",35.67957,139.83165
186,13108 ,江東区,新木場４－３－１７,"280,000 ",新木場,"1,300 ",35.64355,139.83911
187,13108 ,江東区,有明１－３－１７,"600,000 ",有明テニスの森,240 ,35.63916,139.79091
188,13108 ,江東区,東陽５－１６－３,"516,000 ",木場,470 ,35.67148,139.81177
189,13108 ,江東区,東砂３－１６－２７,"441,000 ",東大島,"1,100 ",35.68231,139.84148
190,13108 ,江東区,東陽５－２６－７,"535,000 ",東陽町,370 ,35.67107,139.81448
191,13108 ,江東区,南砂２－１６－６,"388,000 ",東陽町,900 ,35.67436,139.82265
192,13108 ,江東区,新砂２－３－２,"400,000 ",東陽町,"1,400 ",35.66461,139.82472
193,13108 ,江東区,東雲２－６－１９,"669,000 ",東雲,180 ,35.64138,139.80112
194,13108 ,江東区,大島１－３３－１５,"669,000 ",西大島,100 ,35.68855,139.826
195,13108 ,江東区,大島３－３－７,"400,000 ",西大島,320 ,35.69155,139.8266
196,13108 ,江東区,富岡１－２６－１３,"1,150,000 ",門前仲町,280 ,35.66991,139.79958
197,13108 ,江東区,永代２－２１－２,"543,000 ",門前仲町,320 ,35.67184,139.79192
198,13108 ,江東区,門前仲町２－５－１１,"1,720,000 ",門前仲町,,35.67243,139.79536
199,13109 ,品川区,西五反田５－１１－１３,"879,000 ",不動前,70 ,35.62519,139.71375
200,13109 ,品川区,西五反田４－２０－４,"662,000 ",不動前,680 ,35.62514,139.70763
201,13109 ,品川区,東五反田３－１６－２６,"1,000,000 ",五反田,600 ,35.6272,139.72876
202,13109 ,品川区,東品川３－２１－１０,"845,000 ",品川シーサイド,700 ,35.61343,139.74719
203,13109 ,品川区,大井３－４－８,"950,000 ",大井町,450 ,35.60341,139.73196
204,13109 ,品川区,東大井３－３－８,"613,000 ",大井町,490 ,35.60384,139.73744
205,13109 ,品川区,大崎２－６－１３,"865,000 ",大崎,500 ,35.61752,139.72443
206,13109 ,品川区,北品川５－９－２８,"1,030,000 ",大崎,530 ,35.62099,139.7321
207,13109 ,品川区,戸越３－５－１９,"1,110,000 ",戸越,,35.61317,139.71605
208,13109 ,品川区,戸越５－５－１５,"848,000 ",戸越公園,230 ,35.61033,139.71786
209,13109 ,品川区,豊町３－４－１７,"607,000 ",戸越公園,270 ,35.6082,139.72066
210,13109 ,品川区,平塚３－８－１１,"624,000 ",戸越銀座,430 ,35.61483,139.71138
211,13109 ,品川区,旗の台３－１４－２,"847,000 ",旗の台,60 ,35.60474,139.70448
212,13109 ,品川区,荏原２－１１－８,"628,000 ",武蔵小山,720 ,35.6179,139.70943
213,13109 ,品川区,旗の台６－１９－４,"707,000 ",洗足,540 ,35.60707,139.69833
214,13109 ,品川区,上大崎２－１３－３５,"3,200,000 ",目黒,200 ,35.63465,139.71788
215,13109 ,品川区,上大崎２－６－１２,"1,090,000 ",目黒,680 ,35.6389,139.71538
216,13109 ,品川区,南大井４－１２－７,"585,000 ",立会川,420 ,35.59572,139.73561
217,13109 ,品川区,中延２－８－６,"822,000 ",荏原中延,100 ,35.61065,139.71162
218,13109 ,品川区,西中延２－９－１,"625,000 ",荏原中延,310 ,35.6097,139.70897
219,13109 ,品川区,中延５－２－８,"861,000 ",荏原町,120 ,35.60369,139.70773
220,13109 ,品川区,小山６－５－６,"815,000 ",西小山,130 ,35.61465,139.69873
221,13109 ,品川区,南品川３－５－５,"955,000 ",青物横丁,130 ,35.60962,139.74368
222,13110 ,目黒区,上目黒２－１３－４,"1,260,000 ",中目黒,190 ,35.64285,139.69833
223,13110 ,目黒区,青葉台１－１６－１０,"1,070,000 ",中目黒,480 ,35.64751,139.69656
224,13110 ,目黒区,上目黒３－４－３,"3,600,000 ",中目黒,,35.64413,139.69894
225,13110 ,目黒区,碑文谷６－８－１２,"810,000 ",学芸大学,500 ,35.62728,139.68288
226,13110 ,目黒区,碑文谷１－１２－２０,"710,000 ",学芸大学,"1,200 ",35.62215,139.69102
227,13110 ,目黒区,大橋２－２２－８,"1,780,000 ",池尻大橋,140 ,35.65208,139.68553
228,13110 ,目黒区,洗足２－２６－１,"800,000 ",洗足,70 ,35.60978,139.6951
229,13110 ,目黒区,下目黒３－５－２２,"695,000 ",目黒,760 ,35.62991,139.70927
230,13110 ,目黒区,祐天寺２－３－１１,"890,000 ",祐天寺,100 ,35.63759,139.6924
231,13110 ,目黒区,祐天寺１－２５－４,"775,000 ",祐天寺,400 ,35.63842,139.69414
232,13110 ,目黒区,緑が丘２－３－２,"773,000 ",緑が丘,600 ,35.61002,139.67534
233,13110 ,目黒区,自由が丘２－１８－２６,"1,090,000 ",自由が丘,500 ,35.60981,139.66611
234,13110 ,目黒区,原町１－２３－６,"687,000 ",西小山,450 ,35.61667,139.69475
235,13110 ,目黒区,八雲１－５－６,"1,120,000 ",都立大学,280 ,35.61763,139.6738
236,13110 ,目黒区,駒場２－１５－７,"805,000 ",駒場東大前,300 ,35.65646,139.68271
237,13110 ,目黒区,東が丘２－１３－２０,"725,000 ",駒沢大学,600 ,35.63031,139.66324
238,13111 ,大田区,下丸子３－８－１４,"607,000 ",下丸子,100 ,35.57087,139.68449
239,13111 ,大田区,久が原３－３７－６,"655,000 ",久が原,240 ,35.58025,139.68727
240,13111 ,大田区,西嶺町１６－１３,"468,000 ",久が原,550 ,35.58026,139.68082
241,13111 ,大田区,東六郷３－１４－５,"363,000 ",六郷土手,650 ,35.54315,139.71242
242,13111 ,大田区,久が原４－４２－４,"524,000 ",千鳥町,750 ,35.57746,139.69269
243,13111 ,大田区,田園調布１－１６－１８,"545,000 ",多摩川,740 ,35.58934,139.6748
244,13111 ,大田区,北千束１－３９－７,"640,000 ",大岡山,350 ,35.60967,139.68631
245,13111 ,大田区,北千束３－２８－１３,"970,000 ",大岡山,,35.60686,139.6857
246,13111 ,大田区,山王３－３０－８,"790,000 ",大森,400 ,35.58612,139.72563
247,13111 ,大田区,山王１－３５－５,"564,000 ",大森,870 ,35.59306,139.72224
248,13111 ,大田区,大森西５－９－３,"543,000 ",大森町,200 ,35.5719,139.72949
249,13111 ,大田区,大森東５－３２－４,"359,000 ",大森町,"1,300 ",35.56788,139.74236
250,13111 ,大田区,大森南１－１９－１１,"351,000 ",大鳥居,"1,300 ",35.56274,139.73785
251,13111 ,大田区,大森南２－７－２,"378,000 ",大鳥居,"1,600 ",35.56265,139.74649
252,13111 ,大田区,大森東１－１１－７,"407,000 ",平和島,480 ,35.57623,139.73718
253,13111 ,大田区,京浜島２－７－１６,"278,000 ",昭和島,"1,900 ",35.57047,139.7675
254,13111 ,大田区,大森西６－１５－１８,"677,000 ",梅屋敷,90 ,35.56768,139.72812
255,13111 ,大田区,大森中３－２９－４,"395,000 ",梅屋敷,590 ,35.56352,139.73112
256,13111 ,大田区,大森西７－２－５,"380,000 ",梅屋敷,800 ,35.56995,139.72049
257,13111 ,大田区,矢口１－１５－１３,"601,000 ",武蔵新田,100 ,35.56717,139.69191
258,13111 ,大田区,下丸子１－９－２１,"421,000 ",武蔵新田,410 ,35.56884,139.68912
259,13111 ,大田区,池上２－１９－９,"451,000 ",池上,700 ,35.57747,139.70306
260,13111 ,大田区,池上６－３－８,"933,000 ",池上,,35.57215,139.70293
261,13111 ,大田区,上池台２－３７－２,"585,000 ",洗足池,200 ,35.59797,139.6927
262,13111 ,大田区,平和島３－１－１１,"439,000 ",流通センター,540 ,35.58362,139.74478
263,13111 ,大田区,田園調布４－２７－８,"668,000 ",田園調布,780 ,35.59687,139.66016
264,13111 ,大田区,田園調布５－５３－１５,"421,000 ",田園調布,"1,100 ",35.59277,139.65891
265,13111 ,大田区,多摩川２－１８－６,"378,000 ",矢口渡,650 ,35.55779,139.6987
266,13111 ,大田区,羽田５－２５－１６,"371,000 ",穴守稲荷,500 ,35.54762,139.75003
267,13111 ,大田区,萩中２－１１－１１,"397,000 ",糀谷,600 ,35.55122,139.73126
268,13111 ,大田区,蒲田４－２２－２,"1,260,000 ",蒲田,400 ,35.561,139.72058
269,13111 ,大田区,西蒲田７－５１－１１,"772,000 ",蒲田,430 ,35.56247,139.71098
270,13111 ,大田区,蒲田３－３－１４,"446,000 ",蒲田,600 ,35.56366,139.72203
271,13111 ,大田区,蒲田本町２－２－２,"740,000 ",蒲田,650 ,35.55805,139.71938
272,13111 ,大田区,新蒲田２－２３－１５,"416,000 ",蓮沼,700 ,35.55911,139.70811
273,13111 ,大田区,南馬込５－３０－６,"671,000 ",西馬込,70 ,35.58744,139.7068
274,13111 ,大田区,西馬込２－２５－１３,"465,000 ",西馬込,380 ,35.58712,139.70203
275,13111 ,大田区,上池台４－２５－４,"515,000 ",長原,600 ,35.59797,139.69968
276,13111 ,大田区,上池台１－３２－３,"635,000 ",長原,,35.60151,139.69766
277,13111 ,大田区,仲六郷１－３４－８,"384,000 ",雑色,550 ,35.55373,139.71341
278,13111 ,大田区,西六郷２－２７－１５,"374,000 ",雑色,800 ,35.55029,139.70894
279,13111 ,大田区,南雪谷２－１９－１,"633,000 ",雪が谷大塚,330 ,35.58932,139.67879
280,13111 ,大田区,北馬込２－４８－１１,"611,000 ",馬込,430 ,35.6002,139.70985
281,13111 ,大田区,南馬込１－４８－８,"456,000 ",馬込,870 ,35.59,139.71408
282,13112 ,世田谷区,三軒茶屋２－１７－１０,"1,600,000 ",三軒茶屋,390 ,35.64291,139.66685
283,13112 ,世田谷区,太子堂３－２－１６,"653,000 ",三軒茶屋,730 ,35.6488,139.67107
284,13112 ,世田谷区,上北沢１－２２－３５,"484,000 ",上北沢,800 ,35.66287,139.62314
285,13112 ,世田谷区,弦巻５－１９－８,"596,000 ",上町,890 ,35.63917,139.63982
286,13112 ,世田谷区,桜３－７－１３,"643,000 ",上町,950 ,35.63993,139.63824
287,13112 ,世田谷区,北沢２－４－１０,"1,540,000 ",下北沢,300 ,35.66051,139.6687
288,13112 ,世田谷区,赤堤４－４８－５,"795,000 ",下高井戸,100 ,35.66575,139.63916
289,13112 ,世田谷区,世田谷１－３６－１９,"560,000 ",世田谷,500 ,35.64037,139.64862
290,13112 ,世田谷区,代田２－２３－１６,"715,000 ",世田谷代田,300 ,35.65696,139.66229
291,13112 ,世田谷区,奥沢８－３２－１２,"765,000 ",九品仏,90 ,35.60467,139.66104
292,13112 ,世田谷区,尾山台１－１７－４,"631,000 ",九品仏,760 ,35.60195,139.65712
293,13112 ,世田谷区,玉川２－２４－６,"2,220,000 ",二子玉川,180 ,35.6139,139.62764
294,13112 ,世田谷区,岡本２－３－１９,"481,000 ",二子玉川,"1,300 ",35.61958,139.62103
295,13112 ,世田谷区,上祖師谷４－１７－５,"416,000 ",仙川,"1,400 ",35.65623,139.59778
296,13112 ,世田谷区,給田５－１０－１０,"350,000 ",仙川,"1,400 ",35.67277,139.58641
297,13112 ,世田谷区,八幡山３－２９－８,"496,000 ",八幡山,300 ,35.66768,139.61705
298,13112 ,世田谷区,上北沢４－２９－２５,"624,000 ",八幡山,470 ,35.67059,139.61952
299,13112 ,世田谷区,八幡山２－１４－１０,"442,000 ",八幡山,"1,200 ",35.66086,139.61909
300,13112 ,世田谷区,南烏山６－７－１５,"716,000 ",千歳烏山,180 ,35.66891,139.59923
301,13112 ,世田谷区,給田４－３－８,"417,000 ",千歳烏山,"1,000 ",35.66928,139.59282
302,13112 ,世田谷区,船橋４－５－９,"499,000 ",千歳船橋,"1,000 ",35.65494,139.62106
303,13112 ,世田谷区,喜多見４－３－１３,"298,000 ",喜多見,"1,700 ",35.62642,139.59639
304,13112 ,世田谷区,下馬３－７－８,"667,000 ",学芸大学,"1,200 ",35.63427,139.67482
305,13112 ,世田谷区,等々力２－１９－１５,"880,000 ",尾山台,,35.60703,139.65269
306,13112 ,世田谷区,成城２－３５－１２,"917,000 ",成城学園前,100 ,35.63964,139.60005
307,13112 ,世田谷区,成城２－２２－１１,"760,000 ",成城学園前,240 ,35.63849,139.60056
308,13112 ,世田谷区,成城９－９－８,"470,000 ",成城学園前,"1,400 ",35.65069,139.5994
309,13112 ,世田谷区,代田５－２９－７,"685,000 ",新代田,,35.66212,139.66066
310,13112 ,世田谷区,松原２－１４－１７,"612,000 ",明大前,550 ,35.66579,139.64716
311,13112 ,世田谷区,赤堤３－９－１１,"643,000 ",松原,340 ,35.65791,139.64062
312,13112 ,世田谷区,世田谷１－１２－１３,"715,000 ",松陰神社前,300 ,35.64174,139.6528
313,13112 ,世田谷区,桜新町１－９－２３,"685,000 ",桜新町,210 ,35.63006,139.64493
314,13112 ,世田谷区,桜新町２－１４－８,"812,000 ",桜新町,430 ,35.63317,139.64172
315,13112 ,世田谷区,駒沢４－２７－１５,"650,000 ",桜新町,"1,000 ",35.62794,139.65346
316,13112 ,世田谷区,深沢７－１５－９,"645,000 ",桜新町,"1,400 ",35.62203,139.6479
317,13112 ,世田谷区,梅丘１－２１－４,"783,000 ",梅ヶ丘,70 ,35.6554,139.65375
318,13112 ,世田谷区,梅丘１－６０－１７,"648,000 ",梅ヶ丘,350 ,35.65344,139.65163
319,13112 ,世田谷区,代田３－５０－１９,"639,000 ",梅ヶ丘,460 ,35.65642,139.65793
320,13112 ,世田谷区,池尻３－１８－１２,"659,000 ",池尻大橋,450 ,35.65047,139.68057
321,13112 ,世田谷区,玉川台２－８－９,"650,000 ",用賀,500 ,35.62331,139.63013
322,13112 ,世田谷区,瀬田３－３－１１,"600,000 ",用賀,930 ,35.62024,139.63332
323,13112 ,世田谷区,上用賀４－２－７,"610,000 ",用賀,"1,000 ",35.63448,139.63058
324,13112 ,世田谷区,瀬田４－３５－９,"635,000 ",用賀,"1,100 ",35.62179,139.62573
325,13112 ,世田谷区,岡本３－７－２,"488,000 ",用賀,"1,800 ",35.62563,139.61687
326,13112 ,世田谷区,東玉川２－２８－１３,"624,000 ",田園調布,730 ,35.59792,139.67372
327,13112 ,世田谷区,下馬１－２４－６,"665,000 ",祐天寺,950 ,35.6379,139.68216
328,13112 ,世田谷区,祖師谷１－４－８,"538,000 ",祖師ヶ谷大蔵,260 ,35.64419,139.61099
329,13112 ,世田谷区,祖師谷１－１１－１１,"756,000 ",祖師ヶ谷大蔵,280 ,35.64518,139.60904
330,13112 ,世田谷区,砧３－３３－３６,"494,000 ",祖師ヶ谷大蔵,780 ,35.63834,139.61166
331,13112 ,世田谷区,千歳台２－４２－５,"435,000 ",祖師ヶ谷大蔵,"1,300 ",35.65359,139.60971
332,13112 ,世田谷区,北沢５－１４－１４,"590,000 ",笹塚,460 ,35.66973,139.66714
333,13112 ,世田谷区,中町１－２０－１７,"649,000 ",等々力,500 ,35.60823,139.64214
334,13112 ,世田谷区,経堂１－５－１６,"611,000 ",経堂,410 ,35.64834,139.63646
335,13112 ,世田谷区,赤堤１－３０－１３,"675,000 ",経堂,450 ,35.65442,139.63927
336,13112 ,世田谷区,北烏山１－３７－３,"451,000 ",芦花公園,700 ,35.67582,139.60616
337,13112 ,世田谷区,豪徳寺１－２２－５,"773,000 ",豪徳寺,100 ,35.65254,139.64696
338,13112 ,世田谷区,豪徳寺１－５３－８,"578,000 ",豪徳寺,300 ,35.65563,139.64696
339,13112 ,世田谷区,野沢４－１７－７,"720,000 ",駒沢大学,550 ,35.63345,139.66664
340,13112 ,世田谷区,駒沢２－２５－１２,"625,000 ",駒沢大学,600 ,35.63374,139.65707
341,13112 ,世田谷区,深沢２－１４－１２,"619,000 ",駒沢大学,"1,900 ",35.62047,139.6609
342,13113 ,渋谷区,代々木１－４４－１２,"1,470,000 ",代々木,320 ,35.68251,139.69891
343,13113 ,渋谷区,西原３－４１－７,"1,020,000 ",代々木上原,250 ,35.671,139.67879
344,13113 ,渋谷区,西原３－２－５,"1,210,000 ",代々木上原,300 ,35.67044,139.68239
345,13113 ,渋谷区,大山町３４－９,"1,090,000 ",代々木上原,470 ,35.66983,139.6747
346,13113 ,渋谷区,富ヶ谷１－５１－４,"1,460,000 ",代々木公園,80 ,35.66871,139.68935
347,13113 ,渋谷区,富ヶ谷１－２３－２,"930,000 ",代々木公園,550 ,35.66549,139.69009
348,13113 ,渋谷区,猿楽町１５－３,"1,310,000 ",代官山,480 ,35.6505,139.70006
349,13113 ,渋谷区,本町１－９－１２,"660,000 ",初台,400 ,35.68055,139.68311
350,13113 ,渋谷区,初台１－３８－１１,"1,300,000 ",初台,,35.68067,139.68736
351,13113 ,渋谷区,千駄ヶ谷１－２６－１１,"1,200,000 ",千駄ケ谷,290 ,35.68007,139.70955
352,13113 ,渋谷区,代々木３－６－４,"1,000,000 ",南新宿,500 ,35.68307,139.69496
353,13113 ,渋谷区,神宮前１－１９－１４,"4,750,000 ",原宿,80 ,35.67178,139.7036
354,13113 ,渋谷区,幡ヶ谷２－１９－４,"1,350,000 ",幡ヶ谷,250 ,35.67706,139.67422
355,13113 ,渋谷区,広尾５－１６－１,"1,720,000 ",広尾,180 ,35.6499,139.72076
356,13113 ,渋谷区,恵比寿１－１１－２,"3,580,000 ",恵比寿,110 ,35.64647,139.71147
357,13113 ,渋谷区,恵比寿南２－７－６,"1,180,000 ",恵比寿,400 ,35.6442,139.70815
358,13113 ,渋谷区,千駄ヶ谷５－３２－１０,"6,800,000 ",新宿,430 ,35.68658,139.70345
359,13113 ,渋谷区,神南１－２２－８,"12,900,000 ",渋谷,250 ,35.66134,139.70102
360,13113 ,渋谷区,道玄坂２－２９－１９,"13,000,000 ",渋谷,300 ,35.65957,139.69829
361,13113 ,渋谷区,渋谷３－６－２,"5,290,000 ",渋谷,360 ,35.6578,139.7054
362,13113 ,渋谷区,道玄坂１－１９－１２,"4,900,000 ",渋谷,570 ,35.65698,139.69608
363,13113 ,渋谷区,渋谷２－９－９,"5,530,000 ",渋谷,600 ,35.66076,139.70726
364,13113 ,渋谷区,東１－５－１０,"1,040,000 ",渋谷,810 ,35.6566,139.70892
365,13113 ,渋谷区,渋谷３－２９－２０,"4,450,000 ",渋谷,,35.65595,139.70355
366,13113 ,渋谷区,円山町２２－１６,"1,350,000 ",神泉,80 ,35.65635,139.69429
367,13113 ,渋谷区,神宮前３－１６－６,"1,420,000 ",表参道,640 ,35.67029,139.71008
368,13114 ,中野区,中野５－６４－９,"3,900,000 ",中野,70 ,35.70671,139.66551
369,13114 ,中野区,新井１－２－１２,"1,020,000 ",中野,680 ,35.71028,139.66884
370,13114 ,中野区,新井２－８－１０,"602,000 ",中野,820 ,35.71231,139.66476
371,13114 ,中野区,中央１－３０－２３,"696,000 ",中野坂上,360 ,35.69844,139.685
372,13114 ,中野区,本町３－３０－１０,"1,270,000 ",中野坂上,410 ,35.69732,139.67676
373,13114 ,中野区,弥生町５－１１－２４,"757,000 ",中野富士見町,460 ,35.68792,139.66827
374,13114 ,中野区,南台３－１２－１１,"600,000 ",中野富士見町,"1,000 ",35.68309,139.66852
375,13114 ,中野区,本町６－２２－５,"558,000 ",新中野,450 ,35.69663,139.66464
376,13114 ,中野区,中央４－２７－５,"996,000 ",新中野,460 ,35.70148,139.66718
377,13114 ,中野区,中央３－３－６,"629,000 ",新中野,720 ,35.69985,139.67535
378,13114 ,中野区,上高田４－３４－４,"476,000 ",新井薬師前,620 ,35.71385,139.67705
379,13114 ,中野区,江原町３－２４－２,"469,000 ",新江古田,300 ,35.73264,139.67355
380,13114 ,中野区,南台３－３７－７,"500,000 ",方南町,700 ,35.68329,139.66469
381,13114 ,中野区,東中野４－１２－１８,"620,000 ",東中野,350 ,35.7085,139.68442
382,13114 ,中野区,沼袋２－２３－１１,"462,000 ",沼袋,550 ,35.72219,139.66631
383,13114 ,中野区,鷺宮３－１－１６,"649,000 ",都立家政,,35.72301,139.64394
384,13114 ,中野区,野方６－３１－１１,"697,000 ",野方,70 ,35.72038,139.6521
385,13114 ,中野区,野方６－５２－５,"610,000 ",野方,650 ,35.72346,139.64984
386,13114 ,中野区,大和町１－３６－１２,"478,000 ",高円寺,750 ,35.71141,139.65115
387,13114 ,中野区,鷺宮３－１９－５,"765,000 ",鷺ノ宮,70 ,35.72318,139.63841
388,13114 ,中野区,鷺宮３－２８－５,"454,000 ",鷺ノ宮,320 ,35.72456,139.6405
389,13115 ,杉並区,今川４－１７－４,"426,000 ",上井草,"1,400 ",35.71639,139.60083
390,13115 ,杉並区,善福寺４－２３－３,"480,000 ",上石神井,"1,100 ",35.71912,139.58714
391,13115 ,杉並区,下井草３－３５－１８,"465,000 ",下井草,270 ,35.72254,139.62268
392,13115 ,杉並区,久我山４－１－４,"576,000 ",久我山,90 ,35.68823,139.59944
393,13115 ,杉並区,久我山１－５－１７,"660,000 ",久我山,570 ,35.68242,139.59883
394,13115 ,杉並区,上井草１－１－１１,"542,000 ",井荻,590 ,35.71952,139.61356
395,13115 ,杉並区,成田東４－１３－１９,"560,000 ",南阿佐ケ谷,300 ,35.69775,139.63582
396,13115 ,杉並区,阿佐谷南１－８－５,"794,000 ",南阿佐ケ谷,370 ,35.69855,139.63957
397,13115 ,杉並区,高井戸西２－７－７,"523,000 ",富士見ヶ丘,220 ,35.68457,139.6098
398,13115 ,杉並区,宮前１－１５－１３,"527,000 ",富士見ヶ丘,920 ,35.6917,139.60966
399,13115 ,杉並区,堀ノ内２－１１－４,"496,000 ",方南町,440 ,35.68735,139.65434
400,13115 ,杉並区,堀ノ内２－１３－１１,"723,000 ",方南町,610 ,35.68872,139.65488
401,13115 ,杉並区,方南１－３２－２,"452,000 ",方南町,780 ,35.67815,139.65932
402,13115 ,杉並区,和田１－４４－２７,"482,000 ",東高円寺,700 ,35.69354,139.66083
403,13115 ,杉並区,永福１－４４－１０,"681,000 ",永福町,110 ,35.6753,139.64392
404,13115 ,杉並区,永福１－３７－１７,"592,000 ",永福町,360 ,35.67334,139.64381
405,13115 ,杉並区,浜田山３－１５－１４,"590,000 ",浜田山,450 ,35.68142,139.63075
406,13115 ,杉並区,上荻１－１８－１３,"1,060,000 ",荻窪,320 ,35.70603,139.61792
407,13115 ,杉並区,荻窪４－２７－１１,"613,000 ",荻窪,430 ,35.70294,139.62474
408,13115 ,杉並区,天沼１－８－４,"500,000 ",荻窪,700 ,35.70617,139.62622
409,13115 ,杉並区,上荻２－３９－１５,"665,000 ",荻窪,850 ,35.70867,139.6127
410,13115 ,杉並区,荻窪２－７－４,"590,000 ",荻窪,890 ,35.69739,139.62083
411,13115 ,杉並区,南荻窪１－２３－２,"569,000 ",荻窪,"1,000 ",35.69719,139.61656
412,13115 ,杉並区,桃井１－２３－６,"461,000 ",荻窪,"1,100 ",35.71201,139.61385
413,13115 ,杉並区,永福３－２３－１１,"661,000 ",西永福,290 ,35.67636,139.63605
414,13115 ,杉並区,成田東１－６－１０,"435,000 ",西永福,"1,200 ",35.68803,139.6382
415,13115 ,杉並区,西荻南３－７－３,"750,000 ",西荻窪,210 ,35.70247,139.60127
416,13115 ,杉並区,西荻北２－２１－１,"564,000 ",西荻窪,520 ,35.70611,139.60378
417,13115 ,杉並区,西荻南４－１５－２,"566,000 ",西荻窪,550 ,35.70141,139.60413
418,13115 ,杉並区,西荻南２－１１－２,"549,000 ",西荻窪,700 ,35.69899,139.59966
419,13115 ,杉並区,善福寺２－９－１３,"480,000 ",西荻窪,"1,100 ",35.71069,139.59279
420,13115 ,杉並区,阿佐谷南３－３７－１４,"1,600,000 ",阿佐ケ谷,,35.70434,139.63477
421,13115 ,杉並区,高円寺南３－５８－２９,"956,000 ",高円寺,200 ,35.70452,139.64853
422,13115 ,杉並区,高円寺南４－４０－１０,"605,000 ",高円寺,320 ,35.705,139.65334
423,13115 ,杉並区,高円寺北２－４１－１８,"684,000 ",高円寺,550 ,35.70902,139.65059
424,13115 ,杉並区,高円寺北１－１５－１２,"525,000 ",高円寺,820 ,35.70806,139.65599
425,13115 ,杉並区,高円寺北４－９－１１,"540,000 ",高円寺,900 ,35.70683,139.64268
426,13115 ,杉並区,高円寺北２－６－２,"2,020,000 ",高円寺,,35.70581,139.64978
427,13116 ,豊島区,要町３－１２－１２,"730,000 ",千川,90 ,35.73831,139.68883
428,13116 ,豊島区,千川１－２０－８,"590,000 ",千川,360 ,35.73906,139.69261
429,13116 ,豊島区,北大塚２－１２－２,"1,110,000 ",大塚,110 ,35.73275,139.72815
430,13116 ,豊島区,東池袋４－３９－１３,"1,060,000 ",大塚,500 ,35.72935,139.72388
431,13116 ,豊島区,北大塚１－２４－３,"610,000 ",大塚,550 ,35.73335,139.73253
432,13116 ,豊島区,巣鴨１－３５－６,"700,000 ",巣鴨,290 ,35.73169,139.7375
433,13116 ,豊島区,巣鴨３－３７－１,"1,040,000 ",巣鴨,500 ,35.73584,139.73505
434,13116 ,豊島区,南長崎５－２６－１３,"698,000 ",東長崎,80 ,35.72935,139.68225
435,13116 ,豊島区,南長崎６－３０－５,"488,000 ",東長崎,380 ,35.73192,139.6803
436,13116 ,豊島区,長崎３－１８－１１,"515,000 ",東長崎,600 ,35.73036,139.68796
437,13116 ,豊島区,長崎１－４－７,"595,000 ",椎名町,200 ,35.7278,139.69371
438,13116 ,豊島区,南池袋２－２７－６,"3,260,000 ",池袋,300 ,35.72849,139.71388
439,13116 ,豊島区,東池袋１－２２－８,"7,800,000 ",池袋,350 ,35.72967,139.71577
440,13116 ,豊島区,池袋２－５３－１２,"1,950,000 ",池袋,480 ,35.73404,139.70908
441,13116 ,豊島区,西池袋１－１９－７,"7,150,000 ",池袋,,35.73115,139.70953
442,13116 ,豊島区,目白３－１３－１,"1,530,000 ",目白,100 ,35.72244,139.7056
443,13116 ,豊島区,西巣鴨３－６－２,"600,000 ",西巣鴨,500 ,35.74006,139.72969
444,13116 ,豊島区,巣鴨５－４１－３,"485,000 ",西巣鴨,770 ,35.74046,139.7347
445,13116 ,豊島区,西池袋４－１６－３,"567,000 ",要町,540 ,35.72941,139.6996
446,13116 ,豊島区,高田１－３６－１１,"580,000 ",雑司が谷,220 ,35.71717,139.71559
447,13116 ,豊島区,駒込６－３４－１,"611,000 ",駒込,680 ,35.74119,139.74313
448,13116 ,豊島区,高田３－３２－７,"750,000 ",高田馬場,540 ,35.71674,139.70641
449,13117 ,北区,上中里１－２６－１０,"536,000 ",上中里,370 ,35.7443,139.74872
450,13117 ,北区,浮間３－２１－１３,"366,000 ",北赤羽,550 ,35.788,139.70032
451,13117 ,北区,上十条２－１７－４,"480,000 ",十条,450 ,35.75931,139.71869
452,13117 ,北区,上十条５－６－１,"534,000 ",十条,950 ,35.76482,139.71626
453,13117 ,北区,昭和町２－５－４,"580,000 ",尾久,300 ,35.74851,139.75252
454,13117 ,北区,東十条３－１５－１０,"853,000 ",東十条,160 ,35.76549,139.72835
455,13117 ,北区,東十条４－８－１１,"613,000 ",東十条,400 ,35.76704,139.72934
456,13117 ,北区,東十条６－５－４,"432,000 ",東十条,720 ,35.7705,139.72549
457,13117 ,北区,神谷２－１０－１２,"433,000 ",東十条,780 ,35.76973,139.72917
458,13117 ,北区,滝野川７－８－８,"1,010,000 ",板橋,60 ,35.74522,139.72075
459,13117 ,北区,滝野川７－２６－６,"500,000 ",板橋,520 ,35.74315,139.72356
460,13117 ,北区,王子本町１－２８－５,"641,000 ",王子,550 ,35.75474,139.73262
461,13117 ,北区,堀船２－３３－１１,"312,000 ",王子,"1,100 ",35.75638,139.74469
462,13117 ,北区,王子１－１０－１８,"2,120,000 ",王子,,35.75404,139.73671
463,13117 ,北区,豊島８－１３－１,"426,000 ",王子神谷,470 ,35.76559,139.73969
464,13117 ,北区,豊島４－４－９,"485,000 ",王子神谷,"1,100 ",35.76299,139.74643
465,13117 ,北区,豊島４－７－４,"354,000 ",王子神谷,"1,200 ",35.76339,139.74759
466,13117 ,北区,田端５－２－１０,"614,000 ",田端,260 ,35.73777,139.75859
467,13117 ,北区,滝野川１－７６－６,"470,000 ",西ヶ原四丁目,210 ,35.74636,139.73315
468,13117 ,北区,赤羽１－２１－３,"1,240,000 ",赤羽,250 ,35.78033,139.72079
469,13117 ,北区,赤羽西３－３５－６,"403,000 ",赤羽,"1,200 ",35.76977,139.71657
470,13117 ,北区,西が丘１－１８－１１,"420,000 ",赤羽,"1,400 ",35.76951,139.71373
471,13117 ,北区,中里２－２０－５,"626,000 ",駒込,410 ,35.74033,139.74887
472,13118 ,荒川区,南千住１－３１－８,"515,000 ",三ノ輪,330 ,35.73286,139.79189
473,13118 ,荒川区,東日暮里２－１６－４,"475,000 ",三ノ輪,490 ,35.73029,139.78609
474,13118 ,荒川区,東日暮里３－４３－９,"717,000 ",三河島,300 ,35.73112,139.77898
475,13118 ,荒川区,荒川１－４９－１,"750,000 ",三河島,780 ,35.73442,139.785
476,13118 ,荒川区,南千住５－３７－３,"668,000 ",南千住,150 ,35.73293,139.79765
477,13118 ,荒川区,南千住８－４－７,"553,000 ",南千住,940 ,35.73752,139.80653
478,13118 ,荒川区,東尾久８－４４－１,"506,000 ",宮ノ前,80 ,35.75005,139.76622
479,13118 ,荒川区,西日暮里２－２６－１０,"1,340,000 ",日暮里,260 ,35.73006,139.77107
480,13118 ,荒川区,町屋１－８－１３,"445,000 ",町屋,460 ,35.7458,139.78296
481,13118 ,荒川区,荒川２－２１－２,"455,000 ",町屋,530 ,35.73761,139.78198
482,13118 ,荒川区,町屋３－２９－１２,"458,000 ",町屋,800 ,35.74932,139.78162
483,13118 ,荒川区,南千住６－２１－１,"379,000 ",荒川区役所前,350 ,35.73669,139.78958
484,13118 ,荒川区,西日暮里４－１９－９,"577,000 ",西日暮里,300 ,35.73166,139.76398
485,13118 ,荒川区,東尾久３－２５－５,"618,000 ",赤土小学校前,220 ,35.74524,139.76973
486,13119 ,板橋区,常盤台２－６－５,"988,000 ",ときわ台,70 ,35.7594,139.68953
487,13119 ,板橋区,東新町１－３０－９,"391,000 ",ときわ台,"1,000 ",35.75743,139.68135
488,13119 ,板橋区,常盤台４－３１－３,"728,000 ",上板橋,80 ,35.76427,139.67729
489,13119 ,板橋区,上板橋１－９－８,"409,000 ",上板橋,300 ,35.76198,139.67816
490,13119 ,板橋区,桜川３－１６－５,"405,000 ",上板橋,550 ,35.75928,139.67554
491,13119 ,板橋区,赤塚新町１－７－３,"369,000 ",下赤塚,550 ,35.76923,139.64943
492,13119 ,板橋区,赤塚６－４－１４,"362,000 ",下赤塚,600 ,35.77431,139.64537
493,13119 ,板橋区,中板橋２０－３,"780,000 ",中板橋,70 ,35.75584,139.69659
494,13119 ,板橋区,双葉町２２－３,"433,000 ",中板橋,650 ,35.75788,139.70087
495,13119 ,板橋区,成増１－２８－１３,"813,000 ",地下鉄成増,50 ,35.77589,139.63145
496,13119 ,板橋区,大山東町１０－２,"519,000 ",大山,350 ,35.74807,139.70619
497,13119 ,板橋区,大山町２４－３,"732,000 ",大山,510 ,35.74874,139.69754
498,13119 ,板橋区,中丸町２９－８,"480,000 ",大山,790 ,35.74239,139.70459
499,13119 ,板橋区,向原２－１２－１１,"466,000 ",小竹向原,420 ,35.73968,139.68158
500,13119 ,板橋区,大谷口北町６４－６,"487,000 ",小竹向原,950 ,35.74924,139.68687
501,13119 ,板橋区,小茂根３－６－１,"401,000 ",小竹向原,"1,000 ",35.7512,139.68004
502,13119 ,板橋区,志村２－６－１３,"415,000 ",志村坂上,340 ,35.77699,139.69164
503,13119 ,板橋区,成増４－２７－１１,"336,000 ",成増,"1,100 ",35.78485,139.63728
504,13119 ,板橋区,板橋４－３７－２,"480,000 ",新板橋,290 ,35.75079,139.72008
505,13119 ,板橋区,徳丸３－１－２０,"554,000 ",東武練馬,130 ,35.76917,139.6601
506,13119 ,板橋区,徳丸３－１８－６,"423,000 ",東武練馬,300 ,35.77041,139.65921
507,13119 ,板橋区,板橋１－１６－９,"1,200,000 ",板橋,,35.74662,139.71925
508,13119 ,板橋区,板橋２－６５－８,"785,000 ",板橋区役所前,220 ,35.75013,139.7088
509,13119 ,板橋区,宮本町３０－６,"380,000 ",板橋本町,550 ,35.76351,139.70052
510,13119 ,板橋区,双葉町２－１２,"458,000 ",板橋本町,640 ,35.75677,139.70338
511,13119 ,板橋区,蓮根２－２０－１２,"454,000 ",蓮根,380 ,35.78381,139.67676
512,13119 ,板橋区,坂下２－３０－７,"352,000 ",蓮根,450 ,35.7845,139.68333
513,13119 ,板橋区,坂下２－３３－８,"535,000 ",蓮根,,35.78477,139.67979
514,13119 ,板橋区,高島平１－７９－３,"608,000 ",西台,130 ,35.78625,139.67339
515,13119 ,板橋区,高島平９－２９－３,"360,000 ",西台,680 ,35.79036,139.67053
516,13119 ,板橋区,高島平１－３７－４,"353,000 ",西台,750 ,35.78358,139.66809
517,13119 ,板橋区,新河岸１－１７－１６,"292,000 ",高島平,"1,200 ",35.79605,139.66597
518,13120 ,練馬区,下石神井２－２５－１４,"369,000 ",上井草,960 ,35.73078,139.60718
519,13120 ,練馬区,上石神井１－１７－１４,"602,000 ",上石神井,180 ,35.72567,139.58995
520,13120 ,練馬区,上石神井３－２２－２,"346,000 ",上石神井,"1,000 ",35.73338,139.59401
521,13120 ,練馬区,中村３－３４－２,"420,000 ",中村橋,800 ,35.73096,139.63741
522,13120 ,練馬区,南大泉４－４８－５,"342,000 ",保谷,470 ,35.74717,139.57109
523,13120 ,練馬区,南大泉２－１５－９,"297,000 ",保谷,"1,200 ",35.73876,139.56956
524,13120 ,練馬区,西大泉５－２４－３,"259,000 ",保谷,"1,400 ",35.75874,139.56938
525,13120 ,練馬区,土支田１－１８－８,"282,000 ",光が丘,"1,500 ",35.76497,139.61809
526,13120 ,練馬区,北町８－１４－１５,"376,000 ",地下鉄赤塚,390 ,35.76654,139.64774
527,13120 ,練馬区,東大泉３－２４－２,"441,000 ",大泉学園,480 ,35.75249,139.58914
528,13120 ,練馬区,東大泉５－２６－１３,"412,000 ",大泉学園,550 ,35.7462,139.58855
529,13120 ,練馬区,大泉学園町２－３－１６,"322,000 ",大泉学園,900 ,35.75572,139.58453
530,13120 ,練馬区,大泉学園町１－７－１７,"417,000 ",大泉学園,"1,200 ",35.75953,139.58891
531,13120 ,練馬区,石神井台６－１１－１６,"327,000 ",大泉学園,"1,300 ",35.74035,139.58385
532,13120 ,練馬区,大泉町５－２９－１３,"301,000 ",大泉学園,"1,700 ",35.75948,139.59366
533,13120 ,練馬区,大泉学園町６－１３－２４,"247,000 ",大泉学園,"2,600 ",35.76976,139.58276
534,13120 ,練馬区,大泉町３－３５－９,"234,000 ",大泉学園,"2,700 ",35.7693,139.59737
535,13120 ,練馬区,大泉学園町７－１６－６,"255,000 ",大泉学園,"3,000 ",35.77459,139.58748
536,13120 ,練馬区,貫井３－１－１２,"718,000 ",富士見台,100 ,35.7354,139.63028
537,13120 ,練馬区,貫井３－３８－５,"390,000 ",富士見台,400 ,35.73832,139.6284
538,13120 ,練馬区,富士見台１－１０－１０,"376,000 ",富士見台,900 ,35.73088,139.62401
539,13120 ,練馬区,貫井４－４５－３３,"333,000 ",富士見台,"1,300 ",35.74551,139.62602
540,13120 ,練馬区,羽沢２－２９－４,"425,000 ",小竹向原,800 ,35.74776,139.673
541,13120 ,練馬区,平和台４－２２－１７,"567,000 ",平和台,210 ,35.75872,139.65553
542,13120 ,練馬区,平和台２－２２－３,"404,000 ",平和台,"1,000 ",35.76128,139.66232
543,13120 ,練馬区,豊玉北２－２２－１３,"600,000 ",新江古田,600 ,35.73415,139.66417
544,13120 ,練馬区,北町１－３２－１,"520,000 ",東武練馬,450 ,35.7669,139.66507
545,13120 ,練馬区,北町１－２８－２,"401,000 ",東武練馬,520 ,35.76638,139.6644
546,13120 ,練馬区,豊玉上２－１４－１０,"845,000 ",桜台,100 ,35.73793,139.66254
547,13120 ,練馬区,関町北２－９－５,"417,000 ",武蔵関,410 ,35.72486,139.57687
548,13120 ,練馬区,関町東１－１４－２,"390,000 ",武蔵関,570 ,35.72668,139.58234
549,13120 ,練馬区,関町南３－３０－５,"376,000 ",武蔵関,850 ,35.72194,139.57822
550,13120 ,練馬区,早宮１－１－１,"616,000 ",氷川台,90 ,35.75014,139.66393
551,13120 ,練馬区,早宮１－１８－２６,"406,000 ",氷川台,550 ,35.75043,139.66005
552,13120 ,練馬区,桜台５－３６－２５,"422,000 ",氷川台,810 ,35.7455,139.65982
553,13120 ,練馬区,旭丘１－５８－９,"649,000 ",江古田,350 ,35.73482,139.67406
554,13120 ,練馬区,旭丘２－２２－７,"454,000 ",江古田,680 ,35.73665,139.67899
555,13120 ,練馬区,石神井町２－３０－２,"408,000 ",石神井公園,640 ,35.74844,139.60738
556,13120 ,練馬区,下石神井３－１９－１１,"341,000 ",石神井公園,"1,000 ",35.73601,139.60681
557,13120 ,練馬区,谷原３－６－１３,"316,000 ",石神井公園,"1,700 ",35.75296,139.61749
558,13120 ,練馬区,土支田３－１０－７,"279,000 ",石神井公園,"1,900 ",35.75953,139.608
559,13120 ,練馬区,豊玉北６－１－８,"1,320,000 ",練馬,300 ,35.73689,139.65227
560,13120 ,練馬区,豊玉中３－２６－６,"430,000 ",練馬,850 ,35.73196,139.65292
561,13120 ,練馬区,春日町１－３６－５,"400,000 ",練馬春日町,490 ,35.75293,139.64607
562,13120 ,練馬区,高松２－１８－５,"335,000 ",練馬春日町,"1,100 ",35.74795,139.6312
563,13120 ,練馬区,南田中３－２８－１４,"533,000 ",練馬高野台,530 ,35.73768,139.61734
564,13120 ,練馬区,向山２－２４－１０,"413,000 ",西武豊島園,500 ,35.74024,139.64507
565,13120 ,練馬区,練馬４－２５－１３,"587,000 ",都営豊島園,,35.74216,139.64989
566,13120 ,練馬区,豊玉南３－８－４,"415,000 ",野方,850 ,35.72698,139.65271
567,13121 ,足立区,中川２－１１－２,"330,000 ",亀有,620 ,35.76918,139.85326
568,13121 ,足立区,東和４－９－１４,"305,000 ",亀有,"1,100 ",35.77211,139.84039
569,13121 ,足立区,西綾瀬２－２３－２９,"453,000 ",五反野,240 ,35.76575,139.81134
570,13121 ,足立区,千住関屋町１１－２１,"245,000 ",京成関屋,830 ,35.74144,139.80551
571,13121 ,足立区,六町３－１０－２２,"347,000 ",六町,500 ,35.78667,139.81711
572,13121 ,足立区,東保木間１－２６－２３,"299,000 ",六町,"1,000 ",35.7904,139.81647
573,13121 ,足立区,平野３－１５－２４,"235,000 ",六町,"1,400 ",35.78399,139.80873
574,13121 ,足立区,東保木間２－１９－３,"253,000 ",六町,"1,500 ",35.793,139.81367
575,13121 ,足立区,南花畑４－２３－８,"218,000 ",六町,"1,500 ",35.79761,139.81944
576,13121 ,足立区,千住旭町４０－２２,"1,140,000 ",北千住,250 ,35.74987,139.80704
577,13121 ,足立区,千住仲町１９－７,"752,000 ",北千住,270 ,35.74637,139.80156
578,13121 ,足立区,千住仲町２４－２,"481,000 ",北千住,510 ,35.74499,139.80086
579,13121 ,足立区,千住５－２５－１４,"464,000 ",北千住,560 ,35.7545,139.80582
580,13121 ,足立区,日ノ出町２３－１１,"441,000 ",北千住,650 ,35.75158,139.81026
581,13121 ,足立区,千住桜木２－５－６,"358,000 ",北千住,"1,600 ",35.75542,139.79008
582,13121 ,足立区,加平２－１２－１６,"282,000 ",北綾瀬,650 ,35.7796,139.82707
583,13121 ,足立区,神明南１－８－１１,"190,000 ",北綾瀬,"1,600 ",35.78828,139.82997
584,13121 ,足立区,西新井本町１－１２－１４,"262,000 ",大師前,430 ,35.77668,139.78101
585,13121 ,足立区,西新井１－３２－３,"285,000 ",大師前,430 ,35.7817,139.78139
586,13121 ,足立区,西新井６－１７－７,"263,000 ",大師前,540 ,35.78094,139.77847
587,13121 ,足立区,宮城１－１３－１０,"225,000 ",小台,"1,300 ",35.75856,139.75618
588,13121 ,足立区,扇２－２９－１９,"279,000 ",扇大橋,310 ,35.76411,139.76906
589,13121 ,足立区,本木北町９－２１,"265,000 ",扇大橋,"1,200 ",35.76562,139.78078
590,13121 ,足立区,梅田７－３４－１３,"564,000 ",梅島,150 ,35.77121,139.79794
591,13121 ,足立区,梅島３－７－１７,"291,000 ",梅島,430 ,35.77581,139.79645
592,13121 ,足立区,梅田７－８－１０,"284,000 ",梅島,800 ,35.76809,139.80186
593,13121 ,足立区,中央本町１－１９－１,"366,000 ",梅島,800 ,35.77594,139.80362
594,13121 ,足立区,西竹の塚２－２－８,"500,000 ",竹ノ塚,170 ,35.79441,139.7899
595,13121 ,足立区,竹の塚６－９－２,"666,000 ",竹ノ塚,250 ,35.79451,139.79344
596,13121 ,足立区,伊興４－２－１４,"301,000 ",竹ノ塚,680 ,35.79662,139.78606
597,13121 ,足立区,東伊興３－４－４２,"262,000 ",竹ノ塚,690 ,35.80005,139.79025
598,13121 ,足立区,竹の塚５－１－２,"430,000 ",竹ノ塚,700 ,35.79339,139.79759
599,13121 ,足立区,竹の塚２－１９－２,"376,000 ",竹ノ塚,850 ,35.79094,139.79674
600,13121 ,足立区,西保木間２－１９－１０,"232,000 ",竹ノ塚,"1,300 ",35.8021,139.79768
601,13121 ,足立区,綾瀬１－３８－２０,"542,000 ",綾瀬,110 ,35.76163,139.82262
602,13121 ,足立区,綾瀬３－１６－６,"735,000 ",綾瀬,280 ,35.76392,139.82457
603,13121 ,足立区,綾瀬１－１９－１０,"394,000 ",綾瀬,360 ,35.75806,139.82256
604,13121 ,足立区,綾瀬３－２２－７,"520,000 ",綾瀬,420 ,35.76474,139.82712
605,13121 ,足立区,舎人１－１－１８,"245,000 ",舎人,420 ,35.80733,139.77321
606,13121 ,足立区,舎人１－１５－８外,"368,000 ",舎人,,35.8053,139.77074
607,13121 ,足立区,関原３－２１－２,"360,000 ",西新井,700 ,35.77184,139.78949
608,13121 ,足立区,島根４－１４－８,"265,000 ",西新井,870 ,35.78318,139.79202
609,13121 ,足立区,本木東町２９－１,"227,000 ",西新井,"1,400 ",35.76758,139.78374
610,13121 ,足立区,本木２－４－２１,"278,000 ",西新井,"1,400 ",35.7662,139.78627
611,13121 ,足立区,江北７－１４－１３,"274,000 ",西新井大師西,680 ,35.78152,139.76483
612,13121 ,足立区,鹿浜６－１０－１５,"217,000 ",西新井大師西,"1,200 ",35.78477,139.75859
613,13121 ,足立区,青井３－１９－１５,"367,000 ",青井,310 ,35.77227,139.81783
614,13122 ,葛飾区,お花茶屋１－１４－１１,"400,000 ",お花茶屋,170 ,35.74918,139.83917
615,13122 ,葛飾区,亀有３－１８－３,"600,000 ",亀有,230 ,35.76456,139.84808
616,13122 ,葛飾区,亀有５－３９－２,"460,000 ",亀有,240 ,35.7689,139.84743
617,13122 ,葛飾区,西亀有４－７－１８,"332,000 ",亀有,850 ,35.76527,139.83931
618,13122 ,葛飾区,西水元３－２０－９,"162,000 ",亀有,"3,700 ",35.79139,139.84918
619,13122 ,葛飾区,細田４－２０－３,"294,000 ",京成小岩,"1,200 ",35.74225,139.87215
620,13122 ,葛飾区,立石１－１９－７,"558,000 ",京成立石,60 ,35.73804,139.84917
621,13122 ,葛飾区,立石８－２４－１３,"336,000 ",京成立石,600 ,35.74005,139.8533
622,13122 ,葛飾区,奥戸２－２８－７,"283,000 ",京成立石,"1,200 ",35.73434,139.85884
623,13122 ,葛飾区,東四つ木２－４－１６,"216,000 ",京成立石,"1,200 ",35.7288,139.84634
624,13122 ,葛飾区,高砂２－２８－５,"312,000 ",京成高砂,500 ,35.74732,139.86598
625,13122 ,葛飾区,小菅２－２８－２,"295,000 ",堀切菖蒲園,600 ,35.75265,139.82639
626,13122 ,葛飾区,新小岩２－７－３,"676,000 ",新小岩,190 ,35.71655,139.86011
627,13122 ,葛飾区,西新小岩４－２０－９,"352,000 ",新小岩,790 ,35.72052,139.85226
628,13122 ,葛飾区,奥戸４－１７－２,"289,000 ",新小岩,"1,600 ",35.72828,139.8669
629,13122 ,葛飾区,柴又６－２９－１,"299,000 ",新柴又,300 ,35.75365,139.88007
630,13122 ,葛飾区,柴又４－１７－１０,"323,000 ",新柴又,320 ,35.75201,139.87529
631,13122 ,葛飾区,柴又７－７－１,"353,000 ",柴又,170 ,35.75756,139.87727
632,13122 ,葛飾区,柴又２－２１－８,"314,000 ",柴又,800 ,35.75983,139.86934
633,13122 ,葛飾区,西亀有２－６－２,"380,000 ",綾瀬,600 ,35.76202,139.83157
634,13122 ,葛飾区,東金町１－１０－１０,"595,000 ",金町,250 ,35.76988,139.86743
635,13122 ,葛飾区,東金町３－３４－１,"363,000 ",金町,600 ,35.77359,139.87239
636,13122 ,葛飾区,金町３－３９－８,"360,000 ",金町,720 ,35.76688,139.87611
637,13122 ,葛飾区,東水元２－１３－１８,"260,000 ",金町,"1,200 ",35.77865,139.87096
638,13122 ,葛飾区,水元３－１０－１３,"224,000 ",金町,"1,800 ",35.78094,139.86267
639,13122 ,葛飾区,東水元５－４３－２,"178,000 ",金町,"3,100 ",35.79314,139.86586
640,13122 ,葛飾区,青戸３－３４－５,"500,000 ",青砥,180 ,35.74678,139.85619
641,13122 ,葛飾区,青戸１－５－４,"385,000 ",青砥,350 ,35.74321,139.85551
642,13122 ,葛飾区,立石６－１０－６,"316,000 ",青砥,600 ,35.74513,139.85081
643,13123 ,江戸川区,一之江６－１４－３,"305,000 ",一之江,900 ,35.68661,139.87378
644,13123 ,江戸川区,大杉２－４－４,"268,000 ",一之江,"2,400 ",35.70543,139.87881
645,13123 ,江戸川区,北小岩６－１２－９,"468,000 ",京成小岩,80 ,35.74258,139.88396
646,13123 ,江戸川区,北小岩６－４０－１１,"312,000 ",京成小岩,530 ,35.74429,139.88654
647,13123 ,江戸川区,西小岩１－２６－７,"774,000 ",小岩,270 ,35.7348,139.8811
648,13123 ,江戸川区,東小岩６－８－９,"365,000 ",小岩,510 ,35.73371,139.88661
649,13123 ,江戸川区,南小岩６－２２－１５,"394,000 ",小岩,660 ,35.72821,139.88045
650,13123 ,江戸川区,東小岩４－１３－４,"338,000 ",小岩,850 ,35.72886,139.88905
651,13123 ,江戸川区,南小岩３－７－１１,"360,000 ",小岩,900 ,35.72607,139.88516
652,13123 ,江戸川区,上一色２－１７－１８,"287,000 ",小岩,"1,200 ",35.72588,139.87454
653,13123 ,江戸川区,平井４－８－７,"700,000 ",平井,190 ,35.70546,139.84494
654,13123 ,江戸川区,平井３－１６－２１,"383,000 ",平井,400 ,35.70407,139.8425
655,13123 ,江戸川区,平井１－１３－１３,"310,000 ",平井,850 ,35.70217,139.84955
656,13123 ,江戸川区,平井７－３１－１３,"285,000 ",平井,"1,100 ",35.71437,139.84171
657,13123 ,江戸川区,松島１－２３－８,"332,000 ",新小岩,"1,600 ",35.70455,139.86473
658,13123 ,江戸川区,中央１－３－４,"391,000 ",新小岩,"1,600 ",35.70597,139.86835
659,13123 ,江戸川区,松本１－２７－８,"280,000 ",新小岩,"1,700 ",35.71638,139.87569
660,13123 ,江戸川区,中央２－１５－１２,"336,000 ",新小岩,"2,100 ",35.70493,139.8732
661,13123 ,江戸川区,瑞江２－３－１５,"763,000 ",瑞江,90 ,35.69302,139.89833
662,13123 ,江戸川区,瑞江４－３５－８,"393,000 ",瑞江,410 ,35.69356,139.89423
663,13123 ,江戸川区,南篠崎町１－２８－３,"308,000 ",瑞江,"1,200 ",35.69609,139.90851
664,13123 ,江戸川区,篠崎町４－１３－１８,"319,000 ",篠崎,"1,300 ",35.69854,139.91154
665,13123 ,江戸川区,新堀２－１４－１３,"280,000 ",篠崎,"1,400 ",35.7039,139.89127
666,13123 ,江戸川区,新堀１－４２－１,"302,000 ",篠崎,"1,400 ",35.70227,139.8895
667,13123 ,江戸川区,鹿骨１－３－１１,"254,000 ",篠崎,"1,800 ",35.70695,139.88647
668,13123 ,江戸川区,船堀７－５－１７,"357,000 ",船堀,920 ,35.6787,139.87024
669,13123 ,江戸川区,松江４－２２－１３,"297,000 ",船堀,"1,000 ",35.69061,139.86896
670,13123 ,江戸川区,松江３－６－１４,"302,000 ",船堀,"1,400 ",35.69505,139.86893
671,13123 ,江戸川区,東小松川２－１３－１０,"282,000 ",船堀,"1,700 ",35.69762,139.86597
672,13123 ,江戸川区,中葛西３－３７－４,"816,000 ",葛西,100 ,35.6643,139.87279
673,13123 ,江戸川区,南葛西２－８－１９,"381,000 ",葛西,"1,200 ",35.65395,139.87389
674,13123 ,江戸川区,西葛西３－５－１５,"481,000 ",西葛西,400 ,35.66684,139.85641
675,13123 ,江戸川区,中葛西５－６－１３,"460,000 ",西葛西,800 ,35.66222,139.86542
676,13123 ,江戸川区,北葛西４－２５－２２,"502,000 ",西葛西,960 ,35.66934,139.86554
677,13123 ,江戸川区,北葛西４－２０－１３,"384,000 ",西葛西,"1,300 ",35.67197,139.86612
678,13123 ,江戸川区,西葛西６－１５－２,"1,430,000 ",西葛西,,35.66413,139.86052